timestamp_us,q0,q1,q2,q3,q_d0,q_d1,q_d2,q_d3,thrust_body_z,yaw_sp_move_rate,rollspeed_sp,pitchspeed_sp,yawspeed_sp,rollspeed,pitchspeed,yawspeed,angular_accel_x,angular_accel_y,angular_accel_z,torque_sp_x,torque_sp_y,torque_sp_z,motor0,motor1,motor2,motor3,pwm0,pwm1,pwm2,pwm3
4804000,0.9999988675117493,-0.0004449464613571763,-0.0012976505095139146,0.0006225795368663967,0.9999997615814209,0.0,0.0,0.0006451042136177421,-0.0010000000474974513,0.0,-0.0008437792421318591,0.014212490990757942,0.00029684280161745846,0.020897621288895607,0.005991450976580381,-0.00740793626755476,1.5398836135864258,-0.26041555404663086,0.13610005378723145,-0.0048529841005802155,0.0069526187144219875,-4.527923374553211e-05,0.0019999996293336153,0.0,0.0019999996293336153,0.0,900.0,900.0,900.0,900.0
4812000,0.999998927116394,-0.0003748496528714895,-0.0012995520373806357,0.0005959441768936813,0.9999998211860657,0.0,0.0,0.0005964328302070498,-0.0010000000474974513,0.0,-0.0008437792421318591,0.014212490990757942,0.00029684280161745846,0.024753978475928307,-0.006343284156173468,-0.001077302498742938,0.6697103381156921,-1.1570852994918823,0.5057207345962524,-0.0048529841005802155,0.0069526187144219875,-4.527923374553211e-05,0.0019999996293336153,0.0,0.0019999996293336153,0.0,900.0,900.0,900.0,900.0
4824000,0.9999990463256836,-0.00021798883972223848,-0.0013259639963507652,0.00041119102388620377,1.0,0.0,0.0,7.059345080051571e-05,-0.0010000000474974513,0.0,-0.0008437792421318591,0.014212490990757942,0.00029684280161745846,0.01285666972398758,-0.013709351420402527,-0.02453271672129631,-0.28375524282455444,-0.5654323101043701,-1.5963594913482666,0.002619305159896612,-0.0038771219551563263,0.0006426897016353905,0.0019999996293336153,0.0,0.0019999996293336153,0.0,900.0,900.0,900.0,900.0
4832000,0.9999992251396179,-0.0001501499500591308,-0.0012648095143958926,0.0003364264848642051,1.0,0.0,0.0,7.059345080051571e-05,-0.0010000000474974513,0.0,-0.0008437792421318591,0.014212490990757942,0.00029684280161745846,0.003508893772959709,0.007997589185833931,-0.007640311028808355,-0.9318933486938477,1.7422027587890625,1.1104307174682617,0.002619305159896612,-0.0038771219551563263,0.0006426897016353905,0.0019999996293336153,0.0,0.0019999996293336153,0.0,900.0,900.0,900.0,900.0
4844000,0.9999992847442627,-6.234263128135353e-05,-0.001184878870844841,0.00022293235815595835,1.0,0.0,0.0,7.059345080051571e-05,-0.0010000000474974513,0.0,-0.0008437792421318591,0.014212490990757942,0.00029684280161745846,0.002626362955197692,0.0042166560888290405,-0.006538970395922661,0.14611577987670898,-0.1976427435874939,0.14912113547325134,-0.00731903500854969,-0.0023789212573319674,0.0006952352705411613,0.0019999996293336153,0.0,0.0019999996293336153,0.0,900.0,900.0,900.0,900.0
4852000,0.9999994039535522,6.511512765428051e-05,-0.0010932560544461012,0.00016999892250169069,1.0,0.0,0.0,7.059345080051571e-05,-0.0010000000474974513,0.0,-0.0008437792421318591,0.014212490990757942,0.00029684280161745846,0.019423026591539383,0.01438913308084011,-0.0015648023691028357,1.4263379573822021,0.7841416001319885,0.43344569206237793,-0.00731903500854969,-0.0023789212573319674,0.0006952352705411613,0.0019999996293336153,0.0,0.0019999996293336153,0.0,900.0,900.0,900.0,900.0
4860000,0.9999995231628418,0.00015565620560664684,-0.0010587720898911357,7.075813482515514e-05,1.0,0.0,0.0,7.059345080051571e-05,-0.0010000000474974513,0.0,-0.002022010739892721,0.01376426126807928,0.0005553510272875428,0.010068386793136597,0.001600997638888657,-0.012437105178833008,-0.4685494899749756,-0.8940305113792419,-0.7861405611038208,0.0008678283193148673,0.0031500437762588263,0.000769555801525712,0.0019999996293336153,0.0,0.0019999996293336153,0.0,900.0,900.0,900.0,900.0
4868000,0.9999995231628418,0.0002293863653903827,-0.0010223391000181437,3.92230213037692e-05,0.9999999403953552,-0.0,0.0,-0.0002701081393752247,-0.0010000000474974513,0.0,-0.004070358816534281,0.012833314947783947,0.0004998923395760357,0.003880768083035946,4.6255881898105145e-05,0.0037288558669388294,-0.6091144680976868,-0.3766527771949768,1.2240419387817383,0.0008678283193148673,0.0031500437762588263,0.000769555801525712,0.0019999996293336153,0.0,0.0019999996293336153,0.0,900.0,900.0,900.0,900.0
4884000,0.9999995231628418,0.0004311368684284389,-0.0009464268805459142,-0.0001284791505895555,0.9999999403953552,-0.0,0.0,-0.0002701081393752247,-0.0010000000474974513,0.0,-0.006315293721854687,0.011710168793797493,0.00016120923100970685,0.016361966729164124,0.002725210739299655,-0.008297428488731384,0.6772699952125549,0.049148738384246826,0.002140403725206852,0.0035727545619010925,0.0019110288703814149,0.0008177301497198641,0.001999999862164259,0.0,0.0019999993965029716,0.0,900.0,900.0,900.0,900.0
4892000,0.9999995231628418,0.00047480995999649167,-0.0009090474341064692,-0.0001731211377773434,0.9999999403953552,-0.0,0.0,-0.0002701081393752247,-0.0010000000474974513,0.0,-0.006315293721854687,0.011710168793797493,0.00016120923100970685,-0.002061063889414072,0.0015272395685315132,0.0017947503365576267,-1.3874017000198364,-0.11194121092557907,0.73897385597229,0.0035727545619010925,0.0019110288703814149,0.0008177301497198641,0.001999999862164259,0.0,0.0019999993965029716,0.0,900.0,900.0,900.0,900.0
4904000,0.9999995231628418,0.0005119077395647764,-0.0008750983397476375,-0.0002498106041457504,0.9999999403953552,-0.0,0.0,-0.0002701081393752247,-0.0010000000474974513,0.0,-0.008089227601885796,0.010829401202499866,0.0003771345946006477,-0.006976003292948008,-0.001305796205997467,0.0006093950942158699,-0.26473402976989746,-0.059929344803094864,0.13518550992012024,-0.00421511847525835,0.000664253777358681,0.0006525518838316202,0.001999999862164259,0.0,0.0019999993965029716,0.0,900.0,900.0,900.0,900.0
4908000,0.9999994039535522,0.0005556176183745265,-0.0008543048752471805,-0.00026963322306983173,0.9999999403953552,-0.0,0.0,-0.0002701081393752247,-0.0010000000474974513,0.0,-0.008089227601885796,0.010829401202499866,0.0003771345946006477,0.003006366081535816,0.0015314504271373153,0.0020523127168416977,0.9218442440032959,0.27074339985847473,0.23213979601860046,-0.00421511847525835,0.000664253777358681,0.0006525518838316202,0.001999999862164259,0.0,0.0019999993965029716,0.0,900.0,900.0,900.0,900.0
4924000,0.9999994039535522,0.0007428893586620688,-0.0008124975138343871,-0.00040886964416131377,0.9999997615814209,-0.0,0.0,-0.0007470884593203664,-0.0010000000474974513,0.0,-0.010634025558829308,0.010166790336370468,0.00036049378104507923,0.01666703075170517,-0.0021811178885400295,-0.005591094959527254,1.032655119895935,0.008517269045114517,-0.2191181778907776,-0.001581930322572589,0.0009466760675422847,0.0006992847775109112,0.001999999862164259,0.0,0.0019999993965029716,0.0,900.0,900.0,900.0,900.0
4932000,0.9999993443489075,0.0008176514529623091,-0.000782427319791168,-0.0004738473508041352,0.9999997615814209,-0.0,0.0,-0.0007470884593203664,-0.0010000000474974513,0.0,-0.010634025558829308,0.010166790336370468,0.00036049378104507923,0.007489965762943029,0.0005954349180683494,-0.002889783587306738,-0.3514721989631653,0.17141588032245636,0.17737539112567902,-0.001581930322572589,0.0009466760675422847,0.0006992847775109112,0.001999999862164259,0.0,0.0019999993965029716,0.0,900.0,900.0,900.0,900.0
4944000,0.9999992251396179,0.000907057081349194,-0.000735222187358886,-0.0006129745161160827,0.9999997615814209,-0.0,0.0,-0.0007470884593203664,-0.0010000000474974513,0.0,-0.011778436601161957,0.007659857161343098,0.0005318003240972757,-0.00412181718274951,0.0038202160503715277,-0.014292493462562561,-1.3941736221313477,0.5849578976631165,-0.9548320770263672,0.00514058955013752,-0.006510857492685318,0.0009612768772058189,0.001999999862164259,0.0,0.0019999993965029716,0.0,900.0,900.0,900.0,900.0
4952000,0.9999992251396179,0.0008933821809478104,-0.0006286504212766886,-0.0006921029998920858,0.9999997615814209,-0.0,0.0,-0.0007470884593203664,-0.0010000000474974513,0.0,-0.011778436601161957,0.007659857161343098,0.0005318003240972757,-0.017430603504180908,0.02083147130906582,-0.008814713917672634,-1.4271340370178223,1.5743070840835571,0.1379026472568512,0.00514058955013752,-0.006510857492685318,0.0009612768772058189,0.001999999862164259,0.0,0.0019999993965029716,0.0,900.0,900.0,900.0,900.0
4964000,0.9999990463256836,0.000969099928624928,-0.0005520430859178305,-0.0008569492492824793,0.9999995231628418,-0.0,0.0,-0.000987831735983491,-0.0010000000474974513,0.0,-0.014100166037678719,0.006537408567965031,-1.727929338812828e-05,0.004276694729924202,0.0030185263603925705,-0.015614407137036324,1.168815016746521,-0.959470808506012,-0.2802467942237854,-0.005765263922512531,0.0015253397868946195,0.0011088572209700942,0.001999999862164259,0.0,0.0019999993965029716,0.0,900.0,900.0,900.0,900.0
4972000,0.9999990463256836,0.0010460065677762032,-0.0005035576759837568,-0.0008771874709054828,0.9999995231628418,-0.0,0.0,-0.000987831735983491,-0.0010000000474974513,0.0,-0.014100166037678719,0.006537408567965031,-1.727929338812828e-05,0.008991815149784088,0.003939655609428883,0.006934821140021086,0.8211075663566589,-0.3696857988834381,1.8580929040908813,-0.005765263922512531,0.0015253397868946195,0.0011088572209700942,0.001999999862164259,0.0,0.0019999993965029716,0.0,900.0,900.0,900.0,900.0
4984000,0.9999988675117493,0.0011134465457871556,-0.00046857752022333443,-0.0008773737354204059,0.9999995231628418,-0.0,0.0,-0.000987831735983491,-0.0010000000474974513,0.0,-0.014791038818657398,0.005583355203270912,0.0003386004827916622,-0.003006121376529336,0.002473666798323393,0.0091291768476367,-0.8970822691917419,0.07694310694932938,0.16489654779434204,0.0009165555238723755,0.002299156039953232,0.0006319720414467156,0.001999999862164259,0.0,0.001999999862164259,0.0,900.0,900.0,900.0,900.0
4992000,0.9999988079071045,0.001137365004979074,-0.000430566375143826,-0.0009713955805636942,0.9999995231628418,-0.0,0.0,-0.000987831735983491,-0.0010000000474974513,0.0,-0.014791038818657398,0.005583355203270912,0.0003386004827916622,-0.005084720440208912,-4.5851164031773806e-05,-0.009868412278592587,-0.40708476305007935,-0.06093106046319008,-1.504833459854126,-0.005076155997812748,-0.0028217541985213757,0.0006925339112058282,0.001999999862164259,0.0,0.001999999862164259,0.0,900.0,900.0,900.0,900.0
5004000,0.9999988675117493,0.0011786066461354494,-0.00038540802779607475,-0.0009873778326436877,0.9999995231628418,-0.0,0.0,-0.000987831735983491,-0.0010000000474974513,0.0,-0.016229016706347466,0.004082185216248035,0.00045434338971972466,0.0010805567726492882,0.007970435544848442,0.0044563449919223785,0.6779301166534424,0.3929843306541443,0.7234684228897095,-0.005076155997812748,-0.0028217541985213757,0.0006925339112058282,0.001999999862164259,0.0,0.001999999862164259,0.0,900.0,900.0,900.0,900.0
5012000,0.9999986886978149,0.0012346379226073623,-0.00031718233367428184,-0.0010707093169912696,0.9999990463256836,-0.0,0.0,-0.0013854202115908265,-0.0010000000474974513,0.0,-0.016229016706347466,0.004082185216248035,0.00045434338971972466,0.00617322837933898,0.01298708375543356,-0.013386487029492855,0.5806623697280884,0.4965662956237793,-1.517977237701416,-0.005076155997812748,-0.0028217541985213757,0.0006925339112058282,0.001999999862164259,0.0,0.001999999862164259,0.0,900.0,900.0,900.0,900.0
5024000,0.9999984502792358,0.001263932790607214,-0.00031084343208931386,-0.0012166013475507498,0.9999990463256836,-0.0,0.0,-0.0013854202115908265,-0.0010000000474974513,0.0,-0.017851531505584717,0.0028277169913053513,0.0002869663294404745,-0.00456591323018074,-0.0026529997121542692,-0.009524742141366005,-0.4771636724472046,-0.5127536654472351,1.1662142276763916,-0.00646219402551651,-0.005372295156121254,0.0009578303433954716,0.001999999862164259,0.0,0.001999999862164259,0.0,900.0,900.0,900.0,900.0
5032000,0.9999982714653015,0.0013729238416999578,-0.00021921942243352532,-0.0012605872470885515,0.9999990463256836,-0.0,0.0,-0.0013854202115908265,-0.0010000000474974513,0.0,-0.017851531505584717,0.0028277169913053513,0.0002869663294404745,0.007468509953469038,0.014732888899743557,0.00689616147428751,0.9444023370742798,1.2329208850860596,1.3827333450317383,-0.00646219402551651,-0.005372295156121254,0.0009578303433954716,0.001999999862164259,0.0,0.001999999862164259,0.0,900.0,900.0,900.0,900.0
5044000,0.9999980330467224,0.0014517734525725245,-0.0001919764035847038,-0.0013337582349777222,0.9999990463256836,-0.0,0.0,-0.0013854202115908265,-0.0010000000474974513,0.0,-0.01909228228032589,0.0016150714363902807,6.31650909781456e-05,0.013052873313426971,0.0045462725684046745,-0.013020354323089123,0.1395425796508789,-0.2761089503765106,-0.748887300491333,0.0016444099601358175,-0.0031155154574662447,0.0010133290197700262,0.001999999862164259,0.0,0.001999999862164259,0.0,900.0,900.0,900.0,900.0
5052000,0.9999980330467224,0.0014684690395370126,-0.00012620531197171658,-0.0013453138526529074,0.9999990463256836,-0.0,0.0,-0.0013854202115908265,-0.0010000000474974513,0.0,-0.01909228228032589,0.0016150714363902807,6.31650909781456e-05,-0.0035039589274674654,0.013021644204854965,0.003127628704532981,-1.325271487236023,0.4857478439807892,1.1240513324737549,0.0016444099601358175,-0.0031155154574662447,0.0010133290197700262,0.001999999862164259,0.0,0.001999999862164259,0.0,900.0,900.0,900.0,900.0
5060000,0.9999979734420776,0.0014948371099308133,-7.092735904734582e-05,-0.001385315554216504,0.9999990463256836,-0.0,0.0,-0.0013854202115908265,-0.0010000000474974513,0.0,-0.020030157640576363,0.0004604021378327161,0.00016351439990103245,-0.0010474765440449119,0.011637609452009201,-0.002889468567445874,-0.11671805381774902,0.056048255413770676,-0.24904793500900269,-0.002460238989442587,0.0015744934789836407,0.0010628310265019536,0.001999999862164259,0.0,0.001999999862164259,0.0,900.0,900.0,900.0,900.0
5072000,0.9999977350234985,0.0015407276805490255,-3.7668611184926704e-05,-0.0014739958569407463,0.9999985098838806,-0.0,0.0,-0.0017228308133780956,-0.0010000000474974513,0.0,-0.020030157640576363,0.0004604021378327161,0.00016351439990103245,0.0005068294703960419,0.001738578313961625,-0.009555305354297161,-0.20349982380867004,-0.5827034711837769,-0.2919331192970276,-0.002460238989442587,0.0015744934789836407,0.0010628310265019536,0.001999999862164259,0.0,0.001999999862164259,0.0,900.0,900.0,900.0,900.0
5084000,0.9999974966049194,0.0015948527725413442,-1.1390721738280263e-05,-0.0015864711022004485,0.9999985098838806,-0.0,0.0,-0.0017228308133780956,-0.0010000000474974513,0.0,-0.02126367576420307,0.0003874424728564918,0.00013998965732753277,0.010999862104654312,0.0012198991607874632,-0.01252247579395771,1.519838571548462,-0.2692583501338959,-0.008146707899868488,-0.00232239649631083,0.002476729219779372,0.0013459603069350123,0.0020219064317643642,0.0011006828863173723,0.0,0.0008774102316237986,900.0,900.0,900.0,900.0
5092000,0.9999974370002747,0.0016232499619945884,-2.0760036932188086e-05,-0.0016379172448068857,0.9999985098838806,-0.0,0.0,-0.0017228308133780956,-0.0010000000474974513,0.0,-0.02126367576420307,0.0003874424728564918,0.00013998965732753277,0.0033705777022987604,-0.004568950738757849,-0.00792525801807642,-0.44964301586151123,-0.5906064510345459,0.35524001717567444,-0.00232239649631083,0.002476729219779372,0.0013459603069350123,0.0020219064317643642,0.0011006828863173723,0.0,0.0008774102316237986,900.0,900.0,900.0,900.0
5104000,0.9999971389770508,0.0016484020743519068,-4.460484706214629e-05,-0.001722759217955172,0.9999985098838806,-0.0,0.0,-0.0017228308133780956,-0.0010000000474974513,0.0,-0.021694669499993324,-1.0463305443408899e-05,0.00023415382020175457,0.0011904308339580894,-0.00549092423170805,-0.0037295292131602764,-0.2525648772716522,-0.02255231887102127,0.3856472671031952,-5.629262886941433e-05,-0.0035578811075538397,0.001343964715488255,0.0020219064317643642,0.0011006828863173723,0.0,0.0008774102316237986,900.0,900.0,900.0,900.0
5112000,0.9999971985816956,0.0016482204664498568,-2.5736313546076417e-05,-0.001744237495586276,0.999998152256012,-0.0,0.0,-0.0019357430282980204,-0.0010000000474974513,0.0,-0.021694669499993324,-1.0463305443408899e-05,0.00023415382020175457,-0.008021253161132336,0.005128119606524706,-0.008217865601181984,-0.6516823768615723,0.9567205905914307,-0.18757696449756622,-5.629262886941433e-05,-0.0035578811075538397,0.001343964715488255,0.0020219064317643642,0.0011006828863173723,0.0,0.0008774102316237986,900.0,900.0,900.0,900.0
5124000,0.9999970197677612,0.0016947401454672217,2.571128607087303e-05,-0.0017860524822026491,0.999998152256012,-0.0,0.0,-0.0019357430282980204,-0.0010000000474974513,0.0,-0.021830758079886436,-0.0007404337520711124,0.00020242133177816868,0.0036902541760355234,0.007070181425660849,-0.001329760067164898,0.3172674775123596,0.07840188592672348,0.625092625617981,0.0005448607262223959,-0.0007534258184023201,0.0012396357487887144,0.0020219064317643642,0.0011006828863173723,0.0,0.0008774102316237986,900.0,900.0,900.0,900.0
5132000,0.9999969601631165,0.001679389039054513,5.3920703066978604e-05,-0.0018221508944407105,0.999998152256012,-0.0,0.0,-0.0019357430282980204,-0.0010000000474974513,0.0,-0.021830758079886436,-0.0007404337520711124,0.00020242133177816868,-0.0077155339531600475,0.005928208120167255,-0.006094898097217083,-0.8963690996170044,-0.07396604120731354,-0.38699662685394287,0.0005448607262223959,-0.0007534258184023201,0.0012396357487887144,0.0020219064317643642,0.0011006828863173723,0.0,0.0008774102316237986,900.0,900.0,900.0,900.0
5144000,0.9999969601631165,0.001638434361666441,5.50247059436515e-05,-0.0018541739555075765,0.999998152256012,-0.0,0.0,-0.0019357430282980204,-0.0010000000474974513,0.0,-0.021783864125609398,-0.0013962076045572758,0.00035108812153339386,-0.009005725383758545,-0.0014449383597820997,-0.0010517556220293045,0.021741211414337158,-0.4094907343387604,0.44328421354293823,-0.008894925937056541,-0.004918309859931469,0.0012103990884497762,0.0020219064317643642,0.0011006828863173723,0.0,0.0008774102316237986,900.0,900.0,900.0,900.0
5152000,0.9999968409538269,0.001682789996266365,0.0001080689617083408,-0.0019011578988283873,0.999998152256012,-0.0,0.0,-0.0019357430282980204,-0.0010000000474974513,0.0,-0.021783864125609398,-0.0013962076045572758,0.00035108812153339386,0.008729161694645882,0.012398463673889637,-0.009182563982903957,1.451125979423523,0.9640861749649048,-0.5978671908378601,-0.008894925937056541,-0.004918309859931469,0.0012103990884497762,0.0020219064317643642,0.0011006828863173723,0.0,0.0008774102316237986,900.0,900.0,900.0,900.0
5164000,0.9999966621398926,0.0016605198616161942,0.00010933449812000617,-0.002000272972509265,0.999998152256012,-0.0,0.0,-0.001933353953063488,-0.0010000000474974513,0.0,-0.021023159846663475,-0.0014910728204995394,-7.052533328533173e-05,-0.0063972086645662785,0.0006684134714305401,-0.015007305890321732,-0.48818305134773254,-0.2608579397201538,-0.3336118459701538,-0.0010583342518657446,1.549028092995286e-05,0.0014679552987217903,0.0020219064317643642,0.0011006828863173723,0.0,0.0008774102316237986,900.0,900.0,900.0,900.0
5172000,0.9999966025352478,0.001640979084186256,0.0001086681877495721,-0.002025964204221964,0.999998152256012,-0.0,0.0,-0.001933353953063488,-0.0010000000474974513,0.0,-0.021023159846663475,-0.0014910728204995394,-7.052533328533173e-05,-0.007535445969551802,0.00028176518389955163,-0.00401596212759614,-0.3472728729248047,-0.09071585536003113,0.926235556602478,-0.0010583342518657446,1.549028092995286e-05,0.0014679552987217903,0.0020219064317643642,0.0011006828863173723,0.0,0.0008774102316237986,900.0,900.0,900.0,900.0
5184000,0.9999967217445374,0.0016181604005396366,8.521953714080155e-05,-0.0019872132688760757,0.999998152256012,-0.0,0.0,-0.001933353953063488,-0.0010000000474974513,0.0,-0.0213506780564785,-0.00016602380492258817,-0.000271765049546957,-0.00016091082943603396,-0.0047781020402908325,0.002857478568330407,0.8662539124488831,-0.488373339176178,0.4043564200401306,-0.006298424676060677,0.004018427338451147,0.0009336929069831967,0.0020000010263174772,0.0,0.0019999996293336153,0.0,900.0,900.0,900.0,900.0
5192000,0.9999968409538269,0.0016381832538172603,3.1309780752053484e-05,-0.0019294596277177334,0.999998152256012,-0.0,0.0,-0.001933353953063488,-0.0010000000474974513,0.0,-0.0213506780564785,-0.00016602380492258817,-0.000271765049546957,0.006127113942056894,-0.01240030862390995,0.009576360695064068,0.7349078059196472,-0.7601891160011292,0.680785596370697,-0.006298424676060677,0.004018427338451147,0.0009336929069831967,0.0020000010263174772,0.0,0.0019999996293336153,0.0,900.0,900.0,900.0,900.0
5204000,0.9999969005584717,0.0016041635535657406,-9.523198968963698e-06,-0.0019333409145474434,0.999998152256012,-0.0,0.0,-0.001933353953063488,-0.0010000000474974513,0.0,-0.02077660895884037,0.0002677972079254687,6.660725921392441e-05,-0.00932509545236826,-0.0026693781837821007,-0.011629055254161358,-1.0142896175384521,0.6647083759307861,-1.6029932498931885,-0.0035812838468700647,-0.0006052536191418767,0.0010028149699792266,0.0020000010263174772,0.0,0.0019999996293336153,0.0,900.0,900.0,900.0,900.0
5212000,0.9999969005584717,0.0015981579199433327,-2.3701040845480748e-05,-0.0019452455453574657,0.9999984502792358,-0.0,0.0,-0.0017828147392719984,-0.0010000000474974513,0.0,-0.02077660895884037,0.0002677972079254687,6.660725921392441e-05,-0.0022483274806290865,-0.0011538424296304584,-0.009768584743142128,0.26505813002586365,0.2668311893939972,-0.20841461420059204,-0.0035812838468700647,-0.0006052536191418767,0.0010028149699792266,0.0020000010263174772,0.0,0.0019999996293336153,0.0,900.0,900.0,900.0,900.0
5224000,0.9999969005584717,0.001591169973835349,-7.535859913332388e-05,-0.0019661723636090755,0.9999984502792358,-0.0,0.0,-0.0017828147392719984,-0.0010000000474974513,0.0,-0.020915472880005836,0.0011462109396234155,6.204051896929741e-05,-0.00024339015362784266,-0.005634603090584278,-0.007505352608859539,0.37016940116882324,-0.4619907736778259,0.32328301668167114,-0.006201401352882385,0.001190683338791132,0.0011342823272570968,0.0020000010263174772,0.0,0.0019999996293336153,0.0,900.0,900.0,900.0,900.0
5232000,0.9999967813491821,0.0016015323344618082,-8.49515272420831e-05,-0.0019723044242709875,0.9999984502792358,-0.0,0.0,-0.0017828147392719984,-0.0010000000474974513,0.0,-0.020915472880005836,0.0011462109396234155,6.204051896929741e-05,0.007176422048360109,-0.005961249116808176,-0.006392099894583225,0.6739577054977417,-0.051885783672332764,0.08528363704681396,-0.006201401352882385,0.001190683338791132,0.0011342823272570968,0.0020000010263174772,0.0,0.0019999996293336153,0.0,900.0,900.0,900.0,900.0
5244000,0.9999969005584717,0.0015664842212572694,-8.459137461613864e-05,-0.001968128141015768,0.9999984502792358,-0.0,0.0,-0.0017828147392719984,-0.0010000000474974513,0.0,-0.019884519279003143,0.0017283312045037746,-0.0006491926033049822,-0.009532187134027481,0.003977596759796143,-0.0031499024480581284,-1.281733512878418,0.5957959890365601,0.5569369792938232,-0.0004659160040318966,0.004930965602397919,0.0007114105392247438,0.0020000010263174772,0.0,0.0019999996293336153,0.0,900.0,900.0,900.0,900.0
5252000,0.9999971985816956,0.0015293231699615717,-0.00013585253327619284,-0.0018523294711485505,0.9999984502792358,-0.0,0.0,-0.0017828147392719984,-0.0010000000474974513,0.0,-0.019884519279003143,0.0017283312045037746,-0.0006491926033049822,-0.009424064308404922,-0.010469784960150719,0.022865543141961098,-0.38114988803863525,-1.053754448890686,2.195671558380127,-0.0004659160040318966,0.004930965602397919,0.0007114105392247438,0.0020000010263174772,0.0,0.0019999996293336153,0.0,900.0,900.0,900.0,900.0
5264000,0.9999975562095642,0.0014731885166838765,-9.092845721170306e-05,-0.0016996449558064342,0.9999985098838806,-0.0,0.0,-0.001724499394185841,-0.0010000000474974513,0.0,-0.019827106967568398,0.001686536823399365,-0.00023858202621340752,-0.00467068562284112,0.014695312827825546,0.0097255390137434,0.6677401065826416,1.4560701847076416,-0.4271220266819,-0.009170468896627426,0.0040216934867203236,-3.417833067942411e-05,0.0020000010263174772,0.0,0.0019999996293336153,0.0,900.0,900.0,900.0,900.0
5272000,0.9999974966049194,0.0015249426942318678,-0.00013228684838395566,-0.0016571712912991643,0.9999985098838806,-0.0,0.0,-0.001724499394185841,-0.0010000000474974513,0.0,-0.019827106967568398,0.001686536823399365,-0.00023858202621340752,0.010942022316157818,-0.0033210627734661102,0.011758094653487206,1.5520483255386353,-1.1170673370361328,-0.09862609952688217,-0.009170468896627426,0.0040216934867203236,-3.417833067942411e-05,0.0020000010263174772,0.0,0.0019999996293336153,0.0,900.0,900.0,900.0,900.0
5284000,0.9999974966049194,0.0015506481286138296,-0.0001672635116847232,-0.0016493332805112004,0.9999985098838806,-0.0,0.0,-0.001724499394185841,-0.0010000000474974513,0.0,-0.020151985809206963,0.0026225093752145767,0.0003934926353394985,0.009448809549212456,-0.00781676359474659,-0.007030331529676914,-0.13404256105422974,-0.32887646555900574,-1.2738155126571655,-0.0007607853040099144,0.0009774474892765284,0.00041259624413214624,0.0,0.0019999996293336153,0.0,0.00200000056065619,900.0,900.0,900.0,900.0
5292000,0.9999973773956299,0.0015498093562200665,-0.0002043536806013435,-0.0017198554705828428,0.9999985098838806,-0.0,0.0,-0.001724499394185841,-0.0010000000474974513,0.0,-0.020151985809206963,0.0026225093752145767,0.0003934926353394985,0.0009005776955746114,-0.006360091269016266,-0.02562795765697956,-0.8036098480224609,0.11561408638954163,-1.9068986177444458,-0.0007607853040099144,0.0009774474892765284,0.00041259624413214624,0.0,0.0019999996293336153,0.0,0.00200000056065619,900.0,900.0,900.0,900.0
5304000,0.9999973773956299,0.0014889686135575175,-0.00021090694644954056,-0.0017241870518773794,0.9999985098838806,-0.0,0.0,-0.001724499394185841,-0.0010000000474974513,0.0,-0.01969502493739128,0.0028515353333204985,-7.95610249042511e-05,-0.0076486836187541485,0.0028670523315668106,-0.005240356549620628,-0.6158155202865601,0.3209548890590668,1.1608436107635498,-0.005505078472197056,0.0012993430718779564,0.000669277913402766,0.0,0.0019999996293336153,0.0,0.00200000056065619,900.0,900.0,900.0,900.0
5312000,0.9999973773956299,0.0015146230580285192,-0.0002219482557848096,-0.001710289972834289,0.9999990463256836,-0.0,0.0,-0.0013966631377115846,-0.0010000000474974513,0.0,-0.01969502493739128,0.0028515353333204985,-7.95610249042511e-05,0.002350467024371028,-0.001661272021010518,0.0004114340990781784,0.7494376301765442,-0.21463587880134583,0.8258574604988098,-0.005505078472197056,0.0012993430718779564,0.000669277913402766,0.0,0.0019999996293336153,0.0,0.00200000056065619,900.0,900.0,900.0,900.0
5324000,0.9999972581863403,0.0015404813457280397,-0.00022080473718233407,-0.0017535191727802157,0.9999990463256836,-0.0,0.0,-0.0013966631377115846,-0.0010000000474974513,0.0,-0.01989748328924179,0.003149844240397215,-0.0002429645974189043,0.009806785732507706,0.0031138488557189703,-0.01889679580926895,0.2774641513824463,0.3609801232814789,-1.2023000717163086,-0.0004700906574726105,0.0016625323332846165,0.0009795079240575433,0.0,0.0019999996293336153,0.0,0.00200000056065619,900.0,900.0,900.0,900.0
5332000,0.9999973177909851,0.0015275945188477635,-0.0002373986499151215,-0.001729848561808467,0.9999990463256836,-0.0,0.0,-0.0013966631377115846,-0.0010000000474974513,0.0,-0.01989748328924179,0.003149844240397215,-0.0002429645974189043,-0.0009298656950704753,-0.0014385597314685583,-0.0015479649882763624,-0.7900132536888123,-0.32966768741607666,1.3117921352386475,-0.0004700906574726105,0.0016625323332846165,0.0009795079240575433,0.0,0.0019999996293336153,0.0,0.00200000056065619,900.0,900.0,900.0,900.0
5344000,0.9999974966049194,0.0015455131651833653,-0.0001990726013900712,-0.0016270166961476207,0.9999990463256836,-0.0,0.0,-0.0013966631377115846,-0.0010000000474974513,0.0,-0.01935761049389839,0.0030388503801077604,-0.0006891100201755762,0.00619541434571147,0.014280607923865318,0.009418800473213196,0.25439155101776123,1.3986618518829346,0.4014740288257599,-0.00020656874403357506,0.0016816714778542519,0.00019099832570645958,0.0,0.0019999996293336153,0.0,0.00200000056065619,900.0,900.0,900.0,900.0
5352000,0.9999976754188538,0.0015229544369503856,-0.00019302460714243352,-0.0015209181001409888,0.9999990463256836,-0.0,0.0,-0.0013966631377115846,-0.0010000000474974513,0.0,-0.01935761049389839,0.0030388503801077604,-0.0006891100201755762,-0.00321184447966516,0.004412159789353609,0.019433220848441124,-0.7721685171127319,-0.6658878326416016,1.141385555267334,-0.00020656874403357506,0.0016816714778542519,0.00019099832570645958,0.0,0.0019999996293336153,0.0,0.00200000056065619,900.0,900.0,900.0,900.0
5364000,0.9999980330467224,0.0014233725378289819,-0.000317487952997908,-0.0013962124940007925,0.9999990463256836,-0.0,0.0,-0.0013966631377115846,-0.0010000000474974513,0.0,-0.01830546371638775,0.004211293067783117,-0.00032936432398855686,-0.014829759486019611,-0.019595224410295486,0.010381104424595833,-0.6559892296791077,-1.0046879053115845,-0.7377502918243408,-0.0062357219867408276,-0.0032974653877317905,-0.0004131919704377651,0.0,0.0019999996293336153,0.0,0.00200000056065619,900.0,900.0,900.0,900.0
5372000,0.9999980926513672,0.0014076702063903213,-0.0003258622600696981,-0.0013378466246649623,0.9999992847442627,-0.0,0.0,-0.0011860800441354513,-0.0010000000474974513,0.0,-0.01830546371638775,0.004211293067783117,-0.00032936432398855686,-0.00024419353576377034,0.000430813932325691,0.006335432641208172,1.1795830726623535,1.28699791431427,-0.5778222680091858,-0.0062357219867408276,-0.0032974653877317905,-0.0004131919704377651,0.0,0.0019999996293336153,0.0,0.00200000056065619,900.0,900.0,900.0,900.0
5384000,0.999998152256012,0.0014297784073278308,-0.0003566597297322005,-0.0012612859718501568,0.9999992847442627,-0.0,0.0,-0.0011860800441354513,-0.0010000000474974513,0.0,-0.018883343786001205,0.005402739159762859,-0.0001086108386516571,0.009042748250067234,-0.0009148413082584739,-0.00027237762697041035,0.9293902516365051,0.24883721768856049,-0.6388401985168457,-0.008970458060503006,-0.0009361407719552517,-0.00034616695484146476,0.0020000000949949026,0.0,0.0020000000949949026,0.0,900.0,900.0,900.0,900.0
5388000,0.9999980926513672,0.001461855717934668,-0.0003563895297702402,-0.0012568577658385038,0.9999992847442627,-0.0,0.0,-0.0011860800441354513,-0.0010000000474974513,0.0,-0.018883343786001205,0.005402739159762859,-0.0001086108386516571,0.01589173823595047,0.0019211041508242488,-0.0061846342869102955,1.265916347503662,0.4466409981250763,-0.9995964765548706,-0.008970458060503006,-0.0009361407719552517,-0.00034616695484146476,0.0020000000949949026,0.0,0.0020000000949949026,0.0,900.0,900.0,900.0,900.0
5404000,0.9999982714653015,0.0014339119661599398,-0.000422368262661621,-0.0011854753829538822,0.9999992847442627,-0.0,0.0,-0.0011860800441354513,-0.0010000000474974513,0.0,-0.01857144385576248,0.006011909805238247,-0.0003175889141857624,-0.004200323950499296,0.0005482191918417811,0.0027498044073581696,-0.661031186580658,0.7809517979621887,0.7989487648010254,-0.0029240550938993692,0.0026474909391254187,-0.00038258807035163045,0.0020000000949949026,0.0,0.0020000000949949026,0.0,900.0,900.0,900.0,900.0
5412000,0.9999982714653015,0.0014201751910150051,-0.00046131384442560375,-0.0010835002176463604,0.9999997019767761,-0.0,0.0,-0.0007535115582868457,-0.0010000000474974513,0.0,-0.01857144385576248,0.006011909805238247,-0.0003175889141857624,-0.0012299978407099843,-0.0055063036270439625,0.01571613922715187,0.11156260967254639,-0.32262012362480164,1.3098820447921753,-0.0029240550938993692,0.0026474909391254187,-0.00038258807035163045,0.0020000000949949026,0.0,0.0020000000949949026,0.0,900.0,900.0,900.0,900.0
5424000,0.9999983906745911,0.0014562733704224229,-0.00046268070582300425,-0.0009779176907613873,0.9999997019767761,-0.0,0.0,-0.0007535115582868457,-0.0010000000474974513,0.0,-0.01873946003615856,0.006202599499374628,-0.0002670793328434229,0.009502183645963669,0.003057570196688175,0.0012564215576276183,0.6005517244338989,0.39150938391685486,-1.2492194175720215,0.00047257100231945515,0.0016191519098356366,-0.0004906916874460876,0.0020000000949949026,0.0,0.0020000000949949026,0.0,900.0,900.0,900.0,900.0
5432000,0.9999983906745911,0.0014345502713695168,-0.00047926147817634046,-0.0009444800671190023,0.9999997019767761,-0.0,0.0,-0.0007535115582868457,-0.0010000000474974513,0.0,-0.01873946003615856,0.006202599499374628,-0.0002670793328434229,-0.0034385689068585634,-0.0010564248077571392,-0.0035046315751969814,-0.9183496832847595,-0.17626549303531647,-0.6095926761627197,0.00047257100231945515,0.0016191519098356366,-0.0004906916874460876,0.0020000000949949026,0.0,0.0020000000949949026,0.0,900.0,900.0,900.0,900.0
5444000,0.9999985098838806,0.00145960901863873,-0.0004889441770501435,-0.000878821243532002,0.9999997019767761,-0.0,0.0,-0.0007535115582868457,-0.0010000000474974513,0.0,-0.018518254160881042,0.006619309075176716,-0.000202042399905622,0.005800398997962475,7.392192492261529e-05,0.000627233530394733,0.23852384090423584,-0.12809808552265167,0.03956884890794754,-0.0009458033600822091,0.0017485759453848004,-0.00041616809903644025,0.0020000000949949026,0.0,0.0020000000949949026,0.0,900.0,900.0,900.0,900.0
5452000,0.9999985098838806,0.001444877590984106,-0.0005087722674943507,-0.0008352007134817541,0.9999997019767761,-0.0,0.0,-0.0007535115582868457,-0.0010000000474974513,0.0,-0.018518254160881042,0.006619309075176716,-0.000202042399905622,-0.0019922468345612288,-0.00223145866766572,0.0007894423324614763,-0.5291855931282043,-0.14524972438812256,0.035313233733177185,-0.0009458033600822091,0.0017485759453848004,-0.00041616809903644025,0.0020000000949949026,0.0,0.0020000000949949026,0.0,900.0,900.0,900.0,900.0
5464000,0.9999986886978149,0.0013628344750031829,-0.0005117654800415039,-0.0007049951236695051,0.9999998807907104,-0.0,0.0,-0.0005120578571222723,-0.0010000000474974513,0.0,-0.01718464307487011,0.00703026819974184,-0.00015035609249025583,-0.014401935040950775,0.0027483096346259117,0.014300312846899033,-0.8692551851272583,0.2585509717464447,0.8819846510887146,-0.001702126581221819,0.003515849355608225,-0.0007411047117784619,0.0020000000949949026,0.0,0.0020000000949949026,0.0,900.0,900.0,900.0,900.0
5472000,0.9999988079071045,0.0013215398648753762,-0.0005416584899649024,-0.0006465024198405445,0.9999998807907104,-0.0,0.0,-0.0005120578571222723,-0.0010000000474974513,0.0,-0.01718464307487011,0.00703026819974184,-0.00015035609249025583,-0.009311295114457607,-0.004884941969066858,0.0054509276524186134,0.16101008653640747,-0.5881576538085938,-0.49017518758773804,-0.001702126581221819,0.003515849355608225,-0.0007411047117784619,0.0020000000949949026,0.0,0.0020000000949949026,0.0,900.0,900.0,900.0,900.0
5484000,0.999998927116394,0.0012547821970656514,-0.0005670984974130988,-0.0005947899771854281,0.9999998807907104,-0.0,0.0,-0.0005120578571222723,-0.0010000000474974513,0.0,-0.016301875934004784,0.0075286016799509525,-5.098793189972639e-05,-0.00825347937643528,0.0009183549555018544,-0.0041146110743284225,0.22048945724964142,0.6027594208717346,-0.823241114616394,-0.005327634513378143,0.0008203474571928382,-0.0004381770850159228,0.0,0.0020000000949949026,0.0,0.0020000000949949026,900.0,900.0,900.0,900.0
5492000,0.999998927116394,0.0012536486610770226,-0.0005798630299977958,-0.000586395850405097,0.9999998807907104,-0.0,0.0,-0.0005120578571222723,-0.0010000000474974513,0.0,-0.016301875934004784,0.0075286016799509525,-5.098793189972639e-05,0.0014949374599382281,0.00025797158014029264,-0.007695967331528664,0.8860374093055725,0.09008235484361649,-0.4983806908130646,-0.005327634513378143,0.0008203474571928382,-0.0004381770850159228,0.0,0.0020000000949949026,0.0,0.0020000000949949026,900.0,900.0,900.0,900.0
5504000,0.9999990463256836,0.0012181461788713932,-0.0005644034245051444,-0.0005113704246468842,0.9999998807907104,-0.0,0.0,-0.0005120578571222723,-0.0010000000474974513,0.0,-0.01563488505780697,0.006864961702376604,-0.000260912929661572,-0.003835502779111266,0.0025754221715033054,0.0016660558758303523,0.027116775512695312,0.08792083710432053,0.2938937842845917,-0.00338243180885911,-0.002828683005645871,-0.00032719719456508756,0.0,0.0020000000949949026,0.0,0.0020000000949949026,900.0,900.0,900.0,900.0
5512000,0.9999990463256836,0.0012148215901106596,-0.0005427913274616003,-0.0004985311534255743,1.0,-0.0,0.0,-0.00018288037972524762,-0.0010000000474974513,0.0,-0.01563488505780697,0.006864961702376604,-0.000260912929661572,0.0005365655524656177,0.010696991346776485,-0.0027828440070152283,0.3108373284339905,0.7604610919952393,-0.24023444950580597,-0.00338243180885911,-0.002828683005645871,-0.00032719719456508756,0.0,0.0020000000949949026,0.0,0.0020000000949949026,900.0,900.0,900.0,900.0
5524000,0.9999991059303284,0.0011533775832504034,-0.0005331886932253838,-0.0003898918512277305,1.0,-0.0,0.0,-0.00018288037972524762,-0.0010000000474974513,0.0,-0.015436332672834396,0.006662873085588217,-9.256612975150347e-05,-0.010767875239253044,0.0012573354179039598,0.009889061562716961,-0.5751421451568604,-0.6623990535736084,0.4851036071777344,-0.007634817622601986,-0.0006852702354080975,-0.00043366948375478387,0.0,0.0020000000949949026,0.0,0.0020000000949949026,900.0,900.0,900.0,900.0
5532000,0.9999991059303284,0.001187214977107942,-0.0005129806231707335,-0.00037397671258077025,1.0,-0.0,0.0,-0.00018288037972524762,-0.0010000000474974513,0.0,-0.015436332672834396,0.006662873085588217,-9.256612975150347e-05,0.008696491830050945,0.006370675750076771,-0.004191719461232424,1.348423957824707,0.2506362497806549,-0.9004820585250854,-0.007634817622601986,-0.0006852702354080975,-0.00043366948375478387,0.0,0.0020000000949949026,0.0,0.0020000000949949026,900.0,900.0,900.0,900.0
5544000,0.9999991059303284,0.0011986616300418973,-0.0005225373315624893,-0.00032272961107082665,1.0,-0.0,0.0,-0.00018288037972524762,-0.0010000000474974513,0.0,-0.01622934639453888,0.0067281960509717464,-0.0004275679821148515,0.005134530831128359,-2.5978079065680504e-05,0.0005670145619660616,0.28830114006996155,-0.30713480710983276,0.13600106537342072,-0.004820904694497585,-0.00022688505123369396,-0.0004884230438619852,0.0,0.0020000000949949026,0.0,0.0020000000949949026,900.0,900.0,900.0,900.0
5552000,0.9999991059303284,0.0012270956067368388,-0.0005128875491209328,-0.0002469421597197652,1.0,-0.0,0.0,-0.00018288037972524762,-0.0010000000474974513,0.0,-0.01622934639453888,0.0067281960509717464,-0.0004275679821148515,0.00865056924521923,0.004068965557962656,0.01152350939810276,0.3873788118362427,0.2076149433851242,0.9868844747543335,-0.004820904694497585,-0.00022688505123369396,-0.0004884230438619852,0.0,0.0020000000949949026,0.0,0.0020000000949949026,900.0,900.0,900.0,900.0
5564000,0.9999991059303284,0.0012812818167731166,-0.0005311318091116846,-0.00018219990306533873,1.0,-0.0,0.0,-0.00018288037972524762,-0.0010000000474974513,0.0,-0.016438722610473633,0.0065231164917349815,-0.00014662789180874825,0.009018469601869583,-0.0014186239568516612,0.000463764532469213,-0.08323368430137634,-0.21192176640033722,-0.7612642049789429,0.0012117027072235942,-0.0030386210419237614,-0.0005074250511825085,0.0,0.0020000000949949026,0.0,0.0020000000949949026,900.0,900.0,900.0,900.0
5572000,0.9999991059303284,0.001264433260075748,-0.0005019896198064089,-0.00015669666754547507,1.0,-0.0,0.0,-7.058147457428277e-05,-0.0010000000474974513,0.0,-0.016438722610473633,0.0065231164917349815,-0.00014662789180874825,-0.0036845530848950148,0.00937664695084095,-0.0016656677471473813,-1.0481277704238892,0.8834697008132935,-0.3815683424472809,0.0012117027072235942,-0.0030386210419237614,-0.0005074250511825085,0.0,0.0020000000949949026,0.0,0.0020000000949949026,900.0,900.0,900.0,900.0
5584000,0.9999991655349731,0.001223368220962584,-0.00046269656741060317,-0.00010060769272968173,1.0,-0.0,0.0,-7.058147457428277e-05,-0.0010000000474974513,0.0,-0.015624095685780048,0.006471453234553337,-3.2294876291416585e-05,-0.007565520238131285,0.0034063891507685184,0.004712438676506281,-0.7027835249900818,-1.0494647026062012,0.5528930425643921,-0.003441590815782547,0.006326179951429367,-0.0005361068760976195,0.0004033244913443923,0.001596675137989223,0.0020000000949949026,0.0,900.0,900.0,900.0,900.0
5592000,0.9999991655349731,0.0012232376029714942,-0.0004779177252203226,-9.427070472156629e-05,1.0,-0.0,0.0,-7.058147457428277e-05,-0.0010000000474974513,0.0,-0.015624095685780048,0.006471453234553337,-3.2294876291416585e-05,-0.0007756095146760345,-0.009919773787260056,0.0041970000602304935,0.39084291458129883,-1.302168607711792,-0.019463084638118744,-0.003441590815782547,0.006326179951429367,-0.0005361068760976195,0.0004033244913443923,0.001596675137989223,0.0020000000949949026,0.0,900.0,900.0,900.0,900.0
5604000,0.9999991655349731,0.001169756636954844,-0.0004981870297342539,-6.99987358530052e-05,1.0,-0.0,0.0,-7.058147457428277e-05,-0.0010000000474974513,0.0,-0.015140939503908157,0.0066783735528588295,6.29448622930795e-05,-0.006666066125035286,-0.0002387731510680169,0.0032539614476263523,-0.10428494215011597,0.664732038974762,0.3032371401786804,-0.0033950665965676308,0.0014647330390289426,-0.0005337329348549247,0.0004033244913443923,0.001596675137989223,0.0020000000949949026,0.0,900.0,900.0,900.0,900.0
5612000,0.9999991655349731,0.0011597506236284971,-0.00051191879902035,-4.358372461865656e-05,1.0,-0.0,0.0,-0.00017431691230740398,-0.0010000000474974513,0.0,-0.015140939503908157,0.0066783735528588295,6.29448622930795e-05,-0.0009505839552730322,-0.0026446166448295116,0.004455773159861565,0.4226301908493042,-0.028115393593907356,0.06670892238616943,-0.0033950665965676308,0.0014647330390289426,-0.0005337329348549247,0.0004033244913443923,0.001596675137989223,0.0020000000949949026,0.0,900.0,900.0,900.0,900.0
5624000,0.9999992847442627,0.0011458032531663775,-0.0005273852730169892,-0.0001307869388256222,1.0,-0.0,0.0,-0.00017431691230740398,-0.0010000000474974513,0.0,-0.01380163338035345,0.006374369841068983,0.00012950811651535332,-0.0037795344833284616,-0.003627984318882227,-0.021530915051698685,-0.4991728663444519,-0.06519617140293121,-1.6387070417404175,0.003785224398598075,-0.0020577688701450825,0.00017742742784321308,0.0004033244913443923,0.001596675137989223,0.0020000000949949026,0.0,900.0,900.0,900.0,900.0
5632000,0.9999994039535522,0.001076352782547474,-0.0004985976265743375,-0.0001592733315192163,1.0,-0.0,0.0,-0.00017431691230740398,-0.0010000000474974513,0.0,-0.01380163338035345,0.006374369841068983,0.00012950811651535332,-0.01681995391845703,0.00610777921974659,-0.009902887977659702,-1.1424775123596191,0.7122151255607605,0.4783310890197754,0.003785224398598075,-0.0020577688701450825,0.00017742742784321308,0.0004033244913443923,0.001596675137989223,0.0020000000949949026,0.0,900.0,900.0,900.0,900.0
5644000,0.9999994039535522,0.001047062687575817,-0.0004698149859905243,-0.00016175377822946757,1.0,-0.0,0.0,-0.00017431691230740398,-0.0010000000474974513,0.0,-0.012885543517768383,0.00599061232060194,5.218523438088596e-05,-0.002359597245231271,0.0038300547748804092,0.001930076046846807,0.5679718255996704,-0.1022738367319107,0.9785798788070679,0.001360023394227028,0.0016493592411279678,0.00021816653315909207,0.0004033244913443923,0.001596675137989223,0.0020000000949949026,0.0,900.0,900.0,900.0,900.0
5652000,0.999999463558197,0.000991118373349309,-0.00046098270104266703,-0.0001715643738862127,1.0,-0.0,0.0,-0.00017431691230740398,-0.0010000000474974513,0.0,-0.012885543517768383,0.00599061232060194,5.218523438088596e-05,-0.011936971917748451,0.0008553728694096208,-0.00295231188647449,-0.5161788463592529,-0.2917073369026184,-0.19419413805007935,0.001360023394227028,0.0016493592411279678,0.00021816653315909207,0.0004033244913443923,0.001596675137989223,0.0020000000949949026,0.0,900.0,900.0,900.0,900.0
5664000,0.999999463558197,0.0009952654363587499,-0.000455440953373909,-0.00017282197950407863,1.0,-0.0,0.0,-0.00019091657304670662,-0.0010000000474974513,0.0,-0.011784165166318417,0.005589324980974197,-8.385191904380918e-06,0.0026137654203921556,0.0022743958979845047,-0.00024494953686371446,0.580173909664154,0.31871485710144043,0.23653890192508698,0.0035040262155234814,0.00028519361512735486,0.0002936452510766685,0.0004033244913443923,0.001596675137989223,0.0020000000949949026,0.0,900.0,900.0,900.0,900.0
5672000,0.9999995231628418,0.0009336977964267135,-0.000448008329840377,-0.0001915312313940376,1.0,-0.0,0.0,-0.00019091657304670662,-0.0010000000474974513,0.0,-0.011784165166318417,0.005589324980974197,-8.385191904380918e-06,-0.013814283534884453,0.0019226324511691928,-0.004524038638919592,-1.1037251949310303,0.1046142578125,-0.25044649839401245,0.0035040262155234814,0.00028519361512735486,0.0002936452510766685,0.0004033244913443923,0.001596675137989223,0.0020000000949949026,0.0,900.0,900.0,900.0,900.0
5684000,0.9999995231628418,0.0008699935278855264,-0.0003924048214685172,-0.00016265171871054918,1.0,-0.0,0.0,-0.00019091657304670662,-0.0010000000474974513,0.0,-0.010832387953996658,0.0041724941693246365,2.6948779122903943e-05,-0.00798366591334343,0.00887487642467022,0.005280090495944023,0.3533152937889099,0.38146379590034485,0.4436968266963959,-0.0007545030675828457,-0.0004385257780086249,0.00020449940348044038,0.0020000003278255463,5.820766091346741e-11,0.001999999862164259,0.0,900.0,900.0,900.0,900.0
5692000,0.9999996423721313,0.0008299807086586952,-0.00036075946991331875,-0.00018746066780295223,1.0,-0.0,0.0,-0.00019091657304670662,-0.0010000000474974513,0.0,-0.010832387953996658,0.0041724941693246365,2.6948779122903943e-05,-0.008033785969018936,0.0071735386736691,-0.0057268934324383736,0.11366117000579834,0.02189611829817295,-0.7493271827697754,-0.0007545030675828457,-0.0004385257780086249,0.00020449940348044038,0.0020000003278255463,5.820766091346741e-11,0.001999999862164259,0.0,900.0,900.0,900.0,900.0
5704000,0.9999996423721313,0.0008215472334995866,-0.00025983332307077944,-0.00018727964197751135,1.0,-0.0,0.0,-0.00019091657304670662,-0.0010000000474974513,0.0,-0.010385289788246155,0.002942425198853016,0.00029294673004187644,-0.0013414203422144055,0.014499049633741379,0.0023474441841244698,0.13732528686523438,0.12330447882413864,0.554461658000946,-0.0010053723817691207,0.0013851013500243425,0.00025039847241714597,0.0020000003278255463,5.820766091346741e-11,0.001999999862164259,0.0,900.0,900.0,900.0,900.0
5712000,0.9999996423721313,0.0008078108076006174,-0.00022542277292814106,-0.00021750188898295164,0.9999999403953552,-0.0,0.0,-0.00036662520142272115,-0.0010000000474974513,0.0,-0.010385289788246155,0.002942425198853016,0.00029294673004187644,-0.002816838677972555,0.006559375207871199,-0.006844587158411741,-0.05359915643930435,-0.6346104145050049,-0.7709912657737732,-0.0010053723817691207,0.0013851013500243425,0.00025039847241714597,0.0020000003278255463,5.820766091346741e-11,0.001999999862164259,0.0,900.0,900.0,900.0,900.0
5724000,0.9999997019767761,0.0007308258209377527,-0.0002523910079617053,-0.00026251375675201416,0.9999999403953552,-0.0,0.0,-0.00036662520142272115,-0.0010000000474974513,0.0,-0.009341440163552761,0.003526559565216303,7.710163481533527e-05,-0.016371002420783043,-0.008718647062778473,-0.0038465363904833794,-1.1907482147216797,-1.0419574975967407,0.5335057377815247,-0.0027918058913201094,0.0016342343296855688,0.0003863573365379125,0.0020000003278255463,5.820766091346741e-11,0.001999999862164259,0.0,900.0,900.0,900.0,900.0
5732000,0.9999997019767761,0.0007049982086755335,-0.00027008133474737406,-0.0002660650643520057,0.9999999403953552,-0.0,0.0,-0.00036662520142272115,-0.0010000000474974513,0.0,-0.009341440163552761,0.003526559565216303,7.710163481533527e-05,-0.005670579615980387,-0.006188726518303156,0.0005631018429994583,0.7569670081138611,-0.06354302912950516,0.3044796586036682,-0.0027918058913201094,0.0016342343296855688,0.0003863573365379125,0.0020000003278255463,5.820766091346741e-11,0.001999999862164259,0.0,900.0,900.0,900.0,900.0
5744000,0.9999997019767761,0.0007045493111945689,-0.00027212625718675554,-0.0002980254648718983,0.9999999403953552,-0.0,0.0,-0.00036662520142272115,-0.0010000000474974513,0.0,-0.008735083974897861,0.0036506843753159046,0.00026696850545704365,-0.0008549413178116083,-0.0007510289433412254,-0.0039304145611822605,-0.07386881113052368,0.3350833058357239,-0.08908190578222275,0.0007506128749810159,0.0021518676076084375,0.0005682520568370819,0.0020000003278255463,5.820766091346741e-11,0.001999999862164259,0.0,900.0,900.0,900.0,900.0
5752000,0.9999997019767761,0.0006821904680691659,-0.0002834077167790383,-0.0003462395688984543,0.9999999403953552,-0.0,0.0,-0.00036662520142272115,-0.0010000000474974513,0.0,-0.008735083974897861,0.0036506843753159046,0.00026696850545704365,-0.00566357746720314,-0.004505898803472519,-0.01063930056989193,-0.4196617305278778,-0.3160785734653473,-0.6223772764205933,0.0007506128749810159,0.0021518676076084375,0.0005682520568370819,0.0020000003278255463,5.820766091346741e-11,0.001999999862164259,0.0,900.0,900.0,900.0,900.0
5760000,0.9999997019767761,0.0006647297996096313,-0.0002595044788904488,-0.00036760978400707245,0.9999999403953552,-0.0,0.0,-0.00036257089232094586,-0.0010000000474974513,0.0,-0.008453289978206158,0.0032962122932076454,0.0001252341317012906,-0.003718733321875334,0.004447708372026682,-0.003710638266056776,0.05976276099681854,0.7954565286636353,0.532362163066864,-0.0024258517660200596,0.0019186479039490223,0.00032631299109198153,0.0020000003278255463,5.820766091346741e-11,0.001999999862164259,0.0,900.0,900.0,900.0,900.0
5772000,0.9999997019767761,0.000661067315377295,-0.000244360911892727,-0.0003331101033836603,0.9999999403953552,-0.0,0.0,-0.00036257089232094586,-0.0010000000474974513,0.0,-0.008453289978206158,0.0032962122932076454,0.0001252341317012906,0.001379878376610577,-0.000759794085752219,0.0054514710791409016,0.3090950548648834,-0.4444205164909363,0.036694400012493134,-0.0024258517660200596,0.0019186479039490223,0.00032631299109198153,0.0020000003278255463,5.820766091346741e-11,0.001999999862164259,0.0,900.0,900.0,900.0,900.0
5780000,0.9999997019767761,0.0006366005982272327,-0.00025468168314546347,-0.00037016510032117367,0.9999999403953552,-0.0,0.0,-0.00036257089232094586,-0.0010000000474974513,0.0,-0.008069385774433613,0.003849803702905774,-0.00022015167633071542,-0.006323361303657293,-0.0032505635172128677,-0.007014870177954435,-0.5390428304672241,-0.2431812435388565,-0.8702415227890015,-0.0029622744768857956,0.003450795542448759,0.00020155055972281843,0.0021697580814361572,0.00030113011598587036,0.0015291105955839157,0.0,900.0,900.0,900.0,900.0
5792000,0.9999997019767761,0.0006292341277003288,-0.00028366525657474995,-0.0003338386013638228,0.9999999403953552,-0.0,0.0,-0.00036257089232094586,-0.0010000000474974513,0.0,-0.008069385774433613,0.003849803702905774,-0.00022015167633071542,0.0005611710948869586,-0.007669378537684679,0.014022409915924072,0.5503002405166626,-0.5825552940368652,1.4752659797668457,-0.0029622744768857956,0.003450795542448759,0.00020155055972281843,0.0021697580814361572,0.00030113011598587036,0.0015291105955839157,0.0,900.0,900.0,900.0,900.0
5804000,0.9999998211860657,0.0005667718360200524,-0.0002988562046084553,-0.0003624014789238572,0.9999999403953552,-0.0,0.0,-0.00036257089232094586,-0.0010000000474974513,0.0,-0.006955702789127827,0.0028912369161844254,0.00016676954692229629,-0.013904550112783909,-0.0011294991709291935,-0.006012910511344671,-0.9465464949607849,0.4639066755771637,-1.215761423110962,-0.0015945460181683302,-0.004336406011134386,0.00025308658950962126,0.0021697580814361572,0.00030113011598587036,0.0015291105955839157,0.0,900.0,900.0,900.0,900.0
5812000,0.9999998211860657,0.0005497680394910276,-0.000266832037596032,-0.00040349256596527994,0.7024047374725342,0.0,0.0,0.7117777466773987,-0.0010000000474974513,0.0,-0.006955702789127827,0.0028912369161844254,0.00016676954692229629,-0.005509250797331333,0.009294027462601662,-0.0090473098680377,0.44611287117004395,1.173138976097107,-0.6993999481201172,-0.0015945460181683302,-0.004336406011134386,0.00025308658950962126,0.0021697580814361572,0.00030113011598587036,0.0015291105955839157,0.0,900.0,900.0,900.0,900.0
5824000,0.702303946018219,0.0005105201271362603,0.00019868052913807333,0.7118770480155945,0.7024047374725342,0.0,0.0,0.7117777466773987,-0.0010000000474974513,0.0,-0.0068154651671648026,0.0033048265613615513,0.00011140108108520508,-0.010093692690134048,0.0015423529548570514,0.0014527722960337996,-0.2513691782951355,-1.0244548320770264,0.9428618550300598,-0.006086823996156454,0.007048283703625202,0.06557852029800415,0.0021697580814361572,0.00030113011598587036,0.0015291105955839157,0.0,900.0,900.0,900.0,900.0
5832000,0.7023181319236755,0.000549168384168297,0.0001946688862517476,0.7118630409240723,0.7024047374725342,0.0,0.0,0.7117777466773987,-0.0010000000474974513,0.0,-0.0068154651671648026,0.0033048265613615513,0.00011140108108520508,0.006704625673592091,-0.011694947257637978,-0.003399420529603958,1.4302939176559448,-1.5250844955444336,-0.21751001477241516,-0.006086823996156454,0.007048283703625202,0.06557852029800415,0.0021697580814361572,0.00030113011598587036,0.0015291105955839157,0.0,900.0,900.0,900.0,900.0
5844000,0.702367901802063,0.0006581282941624522,0.00016123086970765144,0.7118138670921326,0.7024047374725342,0.0,0.0,0.7117777466773987,-0.0010000000474974513,0.0,-0.008349478244781494,0.005261286627501249,3.921985626220703e-05,0.007495495956391096,-0.013403426855802536,-0.010467799380421638,0.047575294971466064,0.3192017078399658,-0.49134472012519836,-0.003929732367396355,-0.00019994855392724276,0.05164806917309761,0.0021697580814361572,0.00030113011598587036,0.0015291105955839157,0.0,900.0,900.0,900.0,900.0
5852000,0.7023860812187195,0.0007158153457567096,0.00017808089614845812,0.7117958068847656,0.7024047374725342,0.0,0.0,0.7117777466773987,-0.0010000000474974513,0.0,-0.008349478244781494,0.005261286627501249,3.921985626220703e-05,0.011636937968432903,-0.006220127455890179,-0.0031677153892815113,0.33472147583961487,0.6182140707969666,0.5611206293106079,-0.003929732367396355,-0.00019994855392724276,0.05164806917309761,0.0021697580814361572,0.00030113011598587036,0.0015291105955839157,0.0,900.0,900.0,900.0,900.0
5864000,0.7024227380752563,0.0007774625555612147,0.00014856658526696265,0.711759626865387,0.7025896906852722,0.0,0.0,0.7115952968597412,-0.0010000000474974513,0.0,-0.008560019545257092,0.006277582608163357,2.5033950805664062e-05,0.0015930067747831345,-0.011470097117125988,-0.007645360194146633,-0.5254038572311401,-0.17782457172870636,-0.46926820278167725,-0.0002345278626307845,0.0012012820225208998,0.04074956476688385,0.0021697580814361572,0.00030113011598587036,0.0015291105955839157,0.0,900.0,900.0,900.0,900.0
5872000,0.7024639844894409,0.0008090486517176032,0.00013403143384493887,0.7117187976837158,0.7025896906852722,0.0,0.0,0.7115952968597412,-0.0010000000474974513,0.0,-0.008560019545257092,0.006277582608163357,2.5033950805664062e-05,0.0008687934605404735,-0.008054294623434544,-0.01126381941139698,-0.4000697731971741,0.3083798289299011,-0.2541152834892273,-0.0002345278626307845,0.0012012820225208998,0.04074956476688385,0.0021697580814361572,0.00030113011598587036,0.0015291105955839157,0.0,900.0,900.0,900.0,900.0
5884000,0.7024429440498352,0.0008396017365157604,0.00016497628530487418,0.7117395997047424,0.7025896906852722,0.0,0.0,0.7115952968597412,-0.0010000000474974513,0.0,-0.008973464369773865,0.00598873570561409,0.00018399953842163086,0.01052586454898119,0.0007499282946810126,0.008018411695957184,0.9088723659515381,0.4760502576828003,0.6650646328926086,0.0018330218736082315,0.001078374800272286,0.03174369037151337,0.0019999993965029716,0.0,0.001999999862164259,0.0,900.0,900.0,900.0,900.0
5892000,0.7024602890014648,0.0008391810697503388,0.00015020152204670012,0.7117224335670471,0.7025896906852722,0.0,0.0,0.7115952968597412,-0.0010000000474974513,0.0,-0.008973464369773865,0.00598873570561409,0.00018399953842163086,-0.0027593811973929405,-0.0018798355013132095,-0.002941403305158019,-0.9256908893585205,0.054177697747945786,-0.5932958722114563,0.0018330218736082315,0.001078374800272286,0.03174369037151337,0.0019999993965029716,0.0,0.001999999862164259,0.0,900.0,900.0,900.0,900.0
5904000,0.7025452256202698,0.0007840986945666373,0.0002035056531894952,0.7116386890411377,0.7025896906852722,0.0,0.0,0.7115952968597412,-0.0010000000474974513,0.0,-0.009570730850100517,0.005210451781749725,0.0004919171333312988,3.722627297975123e-05,0.01281482819467783,-0.0034572870936244726,0.23767045140266418,0.5748111605644226,-0.27443593740463257,-0.0050653982907533646,0.0016592879546806216,0.02511555701494217,0.0019999993965029716,0.0,0.001999999862164259,0.0,900.0,900.0,900.0,900.0
5912000,0.7026329636573792,0.0007905636448413134,0.0002467638405505568,0.711552083492279,0.7028976082801819,0.0,0.0,0.7112910151481628,-0.0010000000474974513,0.0,-0.009570730850100517,0.005210451781749725,0.0004919171333312988,0.0086419228464365,0.0054616197012364864,-0.012958227656781673,0.7949504256248474,-0.5720896124839783,-0.8256661295890808,-0.0050653982907533646,0.0016592879546806216,0.02511555701494217,0.0019999993965029716,0.0,0.001999999862164259,0.0,900.0,900.0,900.0,900.0
5924000,0.7026851177215576,0.0007622492266818881,0.0002531368809286505,0.7115005850791931,0.7028976082801819,0.0,0.0,0.7112910151481628,-0.0010000000474974513,0.0,-0.009549958631396294,0.00467622559517622,0.00020736455917358398,-0.0058643631637096405,0.007731432560831308,0.006660748273134232,-0.7946560978889465,0.5421552658081055,0.7598499655723572,-0.001807292108424008,0.0022858460433781147,0.01951724663376808,0.0019999993965029716,0.0,0.001999999862164259,0.0,900.0,900.0,900.0,900.0
5932000,0.7027287483215332,0.0007704593008384109,0.00024923848104663193,0.7114574909210205,0.7028976082801819,0.0,0.0,0.7112910151481628,-0.0010000000474974513,0.0,-0.009549958631396294,0.00467622559517622,0.00020736455917358398,-0.0007839796599000692,-0.0004749233485199511,0.0029142647981643677,0.1757732331752777,-0.49748387932777405,0.009959789924323559,-0.001807292108424008,0.0022858460433781147,0.01951724663376808,0.0019999993965029716,0.0,0.001999999862164259,0.0,900.0,900.0,900.0,900.0
5944000,0.7028258442878723,0.0007954070460982621,0.00026523947599343956,0.7113615274429321,0.7028976082801819,0.0,0.0,0.7112910151481628,-0.0010000000474974513,0.0,-0.008641158230602741,0.004774679429829121,0.000353395938873291,0.0021873407531529665,-0.00479167839512229,-0.007132112979888916,-0.1838517189025879,-0.7405393123626709,-0.6930721402168274,0.005217958241701126,-0.0014146787580102682,0.015413925051689148,0.0019999993965029716,0.0,0.001999999862164259,0.0,900.0,900.0,900.0,900.0
5952000,0.7028743624687195,0.000745721161365509,0.00023752042034175247,0.7113136053085327,0.7028976082801819,0.0,0.0,0.7112910151481628,-0.0010000000474974513,0.0,-0.008641158230602741,0.004774679429829121,0.000353395938873291,-0.015250733122229576,0.0033588965889066458,0.00031442835461348295,-1.4464328289031982,0.5488762855529785,0.436707079410553,0.005217958241701126,-0.0014146787580102682,0.015413925051689148,0.0019999993965029716,0.0,0.001999999862164259,0.0,900.0,900.0,900.0,900.0
5964000,0.7029250860214233,0.000690133310854435,0.00017035409109666944,0.7112635970115662,0.702948808670044,0.0,0.0,0.7112404704093933,-0.0010000000474974513,0.0,-0.006806221324950457,0.005226865876466036,-6.258487701416016e-05,-0.016150936484336853,-0.0008080995758064091,0.008340178057551384,-0.30991804599761963,-0.13870589435100555,0.6603094339370728,0.0021504319738596678,0.0022051066625863314,0.011842700652778149,0.0019999993965029716,0.0,0.001999999862164259,0.0,900.0,900.0,900.0,900.0
